,Unnamed: 0,Pin Code,Video Timestamp,Time Passed,X-Coord (Both),Y-Coord (Both),X-Coord (Head),Y-Coord (Head),X-Coord (Eye),Y-Coord (Eye),Current Timestamp,Accelerometer_y,Accelerometer_z,Accelerometer_x,Barometer_relativeAltitude,Barometer_pressure,Gravity_y,Gravity_z,Gravity_x,Gyroscope_y,Gyroscope_z,Gyroscope_x,Light_lux,Magnetometer_y,Magnetometer_z,Magnetometer_x,Orientation_qy,Orientation_qx,Orientation_yaw,Orientation_qw,Orientation_qz,Orientation_roll,Orientation_pitch
0,0,3717,2021-03-12 13:11:26,33.42245989304813,491,1093,431,1071,60,22,2021-03-12 13:11:26.033,-0.2529869079589844,-0.07708907127380371,0.6941708922386169,1.093902587890625,1010.135498046875,9.34616470336914,2.964496374130249,0.1761214137077332,-0.01065264455974102,0.037284255027771,-0.1459412276744843,131.0,61.31999969482422,-37.38000106811523,-29.39999961853027,-0.154339000582695,0.5701159834861755,0.4476534426212311,0.7827330231666565,-0.1961469948291779,-0.05934048071503639,-1.263132095336914
1,1,3717,2021-03-12 13:11:26,66.84491978609626,494,1089,431,1068,63,21,2021-03-12 13:11:26.067,-0.6132144927978516,1.942581415176392,0.6839794516563416,1.093902587890625,1010.135498046875,9.347262382507324,2.96074366569519,0.1815244406461716,0.07350324839353561,-0.06711166352033615,0.260989785194397,131.0,61.31999969482422,-37.31999969482422,-29.45999908447266,-0.1544709950685501,0.570248007774353,0.4454167485237122,0.7827010154724121,-0.1957910060882569,-0.0612337738275528,-1.26350200176239
2,2,3717,2021-03-12 13:11:26,100.26737967914438,493,1089,432,1067,61,22,2021-03-12 13:11:26.100,-0.1714525222778321,0.7197091579437256,0.591061532497406,1.093902587890625,1010.135498046875,9.384340286254883,2.842863082885742,0.1499439030885696,0.2205097377300262,-0.04367584362626076,0.3334277868270874,131.0,61.19999694824219,-37.20000076293945,-29.63999938964844,-0.1535730063915253,0.57573401927948,0.4503064155578613,0.7791609764099121,-0.1945569962263108,-0.0526951439678669,-1.27625834941864
3,3,3717,2021-03-12 13:11:26,133.6898395721925,498,1084,437,1062,61,22,2021-03-12 13:11:26.134,-0.09092330932617188,0.4437639713287354,0.3556861281394958,1.025201797485352,1010.1435546875,9.399579048156738,2.793196678161621,0.1267455369234085,0.2822950780391693,-0.1129180341958999,-0.03408846259117126,131.0,61.13999938964844,-37.13999938964844,-29.76000022888184,-0.1508029997348785,0.5786579847335815,0.4490821957588196,0.7782549858093262,-0.1916519999504089,-0.04534541070461273,-1.281659364700317
4,4,3717,2021-03-12 13:11:26,167.11229946524062,498,1084,437,1062,61,22,2021-03-12 13:11:26.167,-0.4069671630859375,0.6899135112762451,-0.2425922155380249,1.025201797485352,1010.1435546875,9.394800186157227,2.810409307479858,0.09774301946163176,-0.05539375171065331,0.02130528911948204,-0.1363538503646851,131.0,61.07999801635742,-37.02000045776367,-29.81999969482422,-0.1488550007343292,0.5784040093421936,0.4570841193199158,0.7787809967994691,-0.1918070018291473,-0.03476491570472717,-1.279955148696899
5,5,3717,2021-03-12 13:11:26,200.5347593582888,497,1086,435,1064,62,22,2021-03-12 13:11:26.201,-0.4571247100830078,0.6170961856842041,1.407922267913818,1.025201797485352,1010.1435546875,9.382708549499512,2.849707841873169,0.1183813214302063,-0.07669904083013535,-0.08522115647792816,-0.09800432622432707,117.0,61.07999801635742,-37.02000045776367,-29.81999969482422,-0.1502670049667358,0.5763030052185059,0.4541164934635162,0.7798069715499878,-0.1928559988737107,-0.04151768982410431,-1.275685787200928
6,6,3717,2021-03-12 13:11:26,233.95721925133685,497,1086,437,1065,60,21,2021-03-12 13:11:26.234,-0.2585048675537109,1.508725881576538,0.0479002520442009,1.025201797485352,1010.1435546875,9.380413055419922,2.858298063278198,0.08976634591817856,0.1576591432094574,-0.1757686287164688,0.1171790882945061,117.0,61.07999801635742,-37.02000045776367,-29.63999938964844,-0.1493670046329499,0.5761569738388062,0.4649316370487213,0.7797530293464661,-0.1942050009965897,-0.03139520436525345,-1.274882078170776
7,7,3717,2021-03-12 13:11:26,267.379679144385,502,1081,442,1059,60,22,2021-03-12 13:11:26.267,-0.1719865798950195,1.073761463165283,0.07575798034667969,1.025201797485352,1010.1435546875,9.404027938842773,2.780903339385986,0.03317819535732269,0.07243798673152924,-0.08415589481592177,0.2460760921239853,117.0,61.07999801635742,-37.2599983215332,-29.34000015258789,-0.1478269994258881,0.5799660086631775,0.4831792414188385,0.7769880294799805,-0.195129007101059,-0.01193015929311514,-1.283254742622376
8,8,3717,2021-03-12 13:11:26,300.8021390374332,506,1079,448,1056,58,23,2021-03-12 13:11:26.301,-0.2458372116088867,-0.1960439682006836,0.6255860328674316,1.025201797485352,1010.1435546875,9.41084098815918,2.757839679718018,0.024439737200737,-0.0926780104637146,-0.08628641813993454,-0.09800432622432707,117.0,61.07999801635742,-37.31999969482422,-29.27999877929688,-0.1481249928474427,0.5809029936790466,0.4875072538852692,0.7760750055313109,-0.1957470029592514,-0.008861681446433067,-1.285714507102966
9,9,3717,2021-03-12 13:11:26,334.22459893048125,507,1079,449,1057,58,22,2021-03-12 13:11:26.334,-0.4614458084106445,0.7679879665374756,0.1019388735294342,1.025201797485352,1010.1435546875,9.401394844055176,2.789795875549316,0.03093932941555977,-0.1960086524486541,-0.01491370238363743,-0.1672465205192566,117.0,61.02000045776367,-37.5,-29.15999984741211,-0.1487960070371628,0.5793269872665405,0.4879555404186249,0.776856005191803,-0.1968069970607758,-0.01108972169458866,-1.282309651374817
10,10,3717,2021-03-12 13:11:26,367.64705882352933,511,1077,453,1056,58,21,2021-03-12 13:11:26.368,-0.2266826629638672,1.077373027801514,0.6063928008079529,1.025201797485352,1010.1435546875,9.396474838256836,2.806022167205811,0.05320975929498672,-0.06391586363315582,-0.03195793181657791,0.0788295716047287,117.0,60.95999908447266,-37.79999923706055,-29.03999900817871,-0.1507250070571899,0.5781130194664001,0.4846312701702118,0.7771080136299133,-0.1979140043258667,-0.01896042749285698,-1.280551195144653
11,11,3717,2021-03-12 13:11:26,401.06951871657753,512,1079,455,1057,57,22,2021-03-12 13:11:26.401,-0.3051519393920898,0.5090525150299072,0.5961323976516724,1.025201797485352,1010.1435546875,9.398329734802246,2.799734115600586,0.05389335751533508,0.008522115647792816,-0.03941478580236435,0.02450108155608177,117.0,60.89999771118164,-37.97999954223633,-29.03999900817871,-0.150748997926712,0.5783839821815491,0.4841096103191376,0.7769420146942139,-0.1977500021457672,-0.01924707740545273,-1.28121280670166
12,12,3717,2021-03-12 13:11:26,434.4919786096256,512,1075,456,1053,56,22,2021-03-12 13:11:26.434,-0.3792667388916016,0.7257370948791504,0.2399219870567321,1.025201797485352,1010.1435546875,9.395830154418944,2.808104515075684,0.05576192960143089,-0.1310275346040725,-0.05432848632335663,-0.07563377916812898,117.0,60.89999771118164,-38.04000091552734,-29.09999847412109,-0.1508789956569672,0.5779809951782227,0.4840331375598908,0.7771649956703186,-0.197955995798111,-0.01985488831996917,-1.280321598052978
13,13,3717,2021-03-12 13:11:26,467.9144385026737,519,1067,461,1045,58,22,2021-03-12 13:11:26.468,-0.3986787796020508,0.7332580089569092,0.1879889667034149,1.009349822998047,1010.1455078125,9.38651180267334,2.83889102935791,0.06459931284189224,-0.08948221802711487,-0.007456851191818714,-0.08735168725252151,124.0,60.84000015258789,-38.21999740600586,-29.09999847412109,-0.1517989933490753,0.5763800144195557,0.4843819439411163,0.7778689861297607,-0.1991499960422516,-0.02275119721889496,-1.277022004127502
14,14,3717,2021-03-12 13:11:26,501.3368983957219,523,1067,465,1046,58,21,2021-03-12 13:11:26.501,-0.3692235946655273,1.022072315216064,0.4732723236083984,1.009349822998047,1010.1455078125,9.380998611450195,2.856534481048584,0.085773766040802,-0.04687163606286049,-0.004261057823896408,-0.01384843792766333,124.0,60.77999877929688,-38.39999771118164,-29.21999931335449,-0.1524199992418289,0.5754349827766418,0.4773394167423248,0.7785810232162476,-0.1986290067434311,-0.03001819178462028,-1.275086760520935
15,15,3717,2021-03-12 13:11:26,534.75935828877,514,1075,455,1055,59,20,2021-03-12 13:11:26.535,-0.3471660614013672,1.12753438949585,0.6383913159370422,1.009349822998047,1010.1455078125,9.378094673156738,2.865993976593018,0.08824892342090608,0.06604639440774918,-0.04367584362626076,0.09800432622432707,124.0,60.77999877929688,-38.39999771118164,-29.21999931335449,-0.1521659940481186,0.5750830173492432,0.4757428467273712,0.7789769768714905,-0.1982920020818711,-0.03078200854361058,-1.274072289466858
16,16,3717,2021-03-12 13:11:26,568.1818181818181,514,1075,456,1054,58,21,2021-03-12 13:11:26.568,-0.2728204727172852,0.5149352550506592,0.2849732935428619,1.009349822998047,1010.1455078125,9.38994026184082,2.827370405197144,0.07295987755060196,0.1810949593782425,-0.02876213937997818,0.1395496428012848,124.0,60.77999877929688,-38.34000015258789,-29.34000015258789,-0.150736004114151,0.5771679878234863,0.4762035310268402,0.7780990004539491,-0.1967670023441315,-0.02579912729561329,-1.278231978416443
17,17,3717,2021-03-12 13:11:26,601.6042780748662,517,1075,459,1054,58,21,2021-03-12 13:11:26.602,-0.3385276794433594,0.210587739944458,0.5424084067344666,1.009349822998047,1010.1455078125,9.39339828491211,2.815683126449585,0.07888692617416382,-0.0884169489145279,-0.01171790901571512,-0.09587380290031433,124.0,60.84000015258789,-38.34000015258789,-29.34000015258789,-0.1504520028829575,0.5777580142021179,0.4718564450740814,0.7780010104179382,-0.1956350058317184,-0.02800964936614037,-1.279456853866577
18,18,3717,2021-03-12 13:11:26,635.0267379679143,518,1071,462,1048,56,23,2021-03-12 13:11:26.635,-0.1944417953491211,0.2592434883117676,0.5709735751152039,1.009349822998047,1010.1455078125,9.383387565612793,2.848430395126343,0.09341741353273393,-0.1054611802101135,-0.04474110901355743,-0.1033306494355202,124.0,60.89999771118164,-38.27999877929688,-29.34000015258789,-0.1512780040502548,0.5760949850082397,0.469370037317276,0.7789139747619629,-0.1962690055370331,-0.0327843502163887,-1.27592408657074
19,19,3717,2021-03-12 13:11:26,668.4491978609625,519,1071,464,1048,55,23,2021-03-12 13:11:26.668,-0.5228767395019531,2.060802698135376,0.287682831287384,1.078048706054688,1010.13720703125,9.390999794006348,2.823368787765503,0.08940394222736359,0.1363538503646851,-0.03941478580236435,0.1906823366880417,121.0,60.89999771118164,-38.21999740600586,-29.34000015258789,-0.1507309973239899,0.5773460268974304,0.4681742191314697,0.7783349752426147,-0.1953089982271194,-0.03165511786937714,-1.278606653213501
20,20,3717,2021-03-12 13:11:26,701.8716577540108,519,1074,462,1052,57,22,2021-03-12 13:11:26.702,-0.3759269714355469,0.6132605075836182,0.3821645081043243,1.078048706054688,1010.13720703125,9.402067184448242,2.786505937576294,0.08111351728439331,0.02343581803143024,-0.0511326938867569,0.04580637067556381,121.0,60.95999908447266,-38.15999984741211,-29.34000015258789,-0.1503479927778244,0.5790709853172302,0.4690716862678528,0.7772859930992126,-0.1946700066328049,-0.02910118363797665,-1.28255045413971
21,21,3717,2021-03-12 13:11:26,735.2941176470587,517,1071,461,1048,56,23,2021-03-12 13:11:26.735,-0.3282699584960937,0.5326211452484131,0.4395003914833069,1.078048706054688,1010.13720703125,9.402294158935547,2.785742521286011,0.08123846352100372,-0.05539375171065331,-0.03834952041506767,-0.08096009492874147,121.0,60.95999908447266,-38.09999847412109,-29.34000015258789,-0.1505350023508072,0.5790560245513916,0.4696221947669983,0.7772049903869629,-0.1948940008878708,-0.02915396541357041,-1.282631993293762
22,22,3717,2021-03-12 13:11:26,768.7165775401068,519,1071,459,1050,60,21,2021-03-12 13:11:26.769,-0.4732904434204102,1.201215028762817,0.4426483809947968,1.078048706054688,1010.13720703125,9.398874282836914,2.797101736068726,0.0876673236489296,-0.01171790901571512,-0.01065264455974102,-0.01278317347168922,121.0,60.89999771118164,-38.09999847412109,-29.34000015258789,-0.1506990045309067,0.5785130262374878,0.4676423668861389,0.7775939702987671,-0.1948319971561432,-0.03133194148540497,-1.281407356262207
23,23,3717,2021-03-12 13:11:26,802.1390374331551,523,1067,467,1044,56,23,2021-03-12 13:11:26.802,-0.2654323577880859,1.004867315292358,0.5478031039237976,1.078048706054688,1010.13720703125,9.401705741882324,2.787548065185547,0.0878574401140213,0.02450108155608177,-0.04367584362626076,0.04900216311216354,121.0,60.84000015258789,-38.09999847412109,-29.34000015258789,-0.1509480029344559,0.5788689851760864,0.4679562449455261,0.7772529721260071,-0.1949409991502762,-0.03150739148259163,-1.282420873641968
24,24,3717,2021-03-12 13:11:26,835.5614973262033,525,1060,468,1038,57,22,2021-03-12 13:11:26.836,-0.4531965255737305,0.7783563137054443,0.3026121258735657,32427.630859375,1.0,9.402722358703613,2.784215927124023,0.0840514749288559,-0.01171790901571512,-0.006391586735844612,-0.03302319720387459,121.0,60.65999984741211,-38.09999847412109,-29.34000015258789,-0.1509470045566559,0.5790159702301025,0.4696221947669983,0.7770829796791077,-0.1951809972524643,-0.03017939440906048,-1.282785773277283
25,25,3717,2021-03-12 13:11:26,868.9839572192512,530,1055,473,1033,57,22,2021-03-12 13:11:26.869,-0.4823455810546875,1.009721040725708,0.5230607390403748,32427.630859375,1.0,9.403141021728516,2.782694339752197,0.08865779638290405,0.01278317347168922,-0.01810949668288231,0.01810949668288231,121.0,60.53999710083008,-38.09999847412109,-29.34000015258789,-0.1513530015945435,0.5789769887924194,0.4687405526638031,0.7770010232925415,-0.1953119933605194,-0.03184964135289192,-1.282935857772827
26,26,3717,2021-03-12 13:11:26,902.4064171122993,523,1068,466,1046,57,22,2021-03-12 13:11:26.902,-0.3873472213745117,0.7153387069702148,0.4496980011463165,32427.630859375,1.0,9.403910636901855,2.780195713043213,0.0854061022400856,-0.1203748807311058,-0.07989483326673508,-0.08735168725252151,121.0,60.47999954223633,-38.09999847412109,-29.27999877929688,-0.1516319960355759,0.579014003276825,0.4711490869522095,0.7767710089683533,-0.1958999931812286,-0.03070979937911034,-1.283212661743164
27,27,3717,2021-03-12 13:11:26,935.8288770053476,517,1074,461,1053,56,21,2021-03-12 13:11:26.936,-0.1949014663696289,0.6898674964904785,0.3638900220394135,32427.630859375,1.0,9.393424034118652,2.815243721008301,0.08981120586395264,-0.04261057823896408,-0.01384843792766333,-0.06604639440774918,121.0,60.41999816894531,-38.09999847412109,-29.27999877929688,-0.1521749943494797,0.5773259997367859,0.472590297460556,0.7776309847831726,-0.1970410048961639,-0.03189093619585037,-1.279466032981873
28,28,3717,2021-03-12 13:11:26,969.2513368983957,523,1076,466,1054,57,22,2021-03-12 13:11:26.969,-0.3951292037963867,1.34319806098938,0.561117947101593,32427.630859375,1.0,9.392539024353027,2.81792426109314,0.09848463535308838,0.0415453128516674,-0.02343581803143024,0.07989483326673508,121.0,60.3599967956543,-37.97999954223633,-29.34000015258789,-0.1522569954395294,0.5771859884262085,0.4688714444637298,0.7778580188751221,-0.196492999792099,-0.03493513539433479,-1.279151916503906
29,29,3717,2021-03-12 13:11:26,1002.6737967914438,523,1076,465,1054,58,22,2021-03-12 13:11:27.003,-0.2951202392578125,0.7193605899810791,0.4529455900192261,1.141462326049805,1010.129638671875,9.39787483215332,2.800115823745728,0.0965237095952034,0.01917476020753384,-0.04261057823896408,-0.002130528911948204,122.0,60.3599967956543,-37.91999816894531,-29.34000015258789,-0.1525489985942841,0.5778949856758118,0.4699428081512451,0.7772330045700073,-0.1966529935598373,-0.03445768356323242,-1.281050682067871
30,30,3717,2021-03-12 13:11:26,1036.0962566844921,523,1074,465,1052,58,22,2021-03-12 13:11:27.036,-0.4955587387084961,1.009045124053955,0.380045473575592,1.141462326049805,1010.129638671875,9.39720058441162,2.802524089813232,0.09280936419963837,-0.04580637067556381,-0.04900216311216354,0.04900216311216354,122.0,60.41999816894531,-37.86000061035156,-29.34000015258789,-0.1525669991970063,0.57778400182724,0.4719012975692749,0.7772150039672852,-0.1970379948616028,-0.03310424834489822,-1.280809998512268
31,31,3717,2021-03-12 13:11:26,1069.51871657754,520,1077,462,1056,58,21,2021-03-12 13:11:27.070,-0.5403642654418945,1.217525959014893,0.3219581544399261,1.141462326049805,1010.129638671875,9.403698921203613,2.78079080581665,0.08864742517471312,0.05965480953454971,-0.07776430249214172,0.1544633507728577,122.0,60.53999710083008,-37.79999923706055,-29.34000015258789,-0.1525940001010895,0.5787349939346313,0.4729406535625458,0.776528000831604,-0.1969359964132309,-0.03186770156025887,-1.283136367797852
32,32,3717,2021-03-12 13:11:26,1102.941176470588,517,1078,459,1058,58,20,2021-03-12 13:11:27.103,-0.337183952331543,0.6268532276153564,0.2591398954391479,1.141462326049805,1010.129638671875,9.415996551513672,2.739394426345825,0.07006283849477768,0.0511326938867569,-0.02556634694337845,0.04580637067556381,122.0,60.53999710083008,-37.73999786376953,-29.34000015258789,-0.1518869996070862,0.5807409882545471,0.4775459468364716,0.7752509713172913,-0.1966080069541931,-0.02557045966386795,-1.287590026855469
33,33,3717,2021-03-12 13:11:26,1136.3636363636365,524,1071,466,1052,58,19,2021-03-12 13:11:27.136,-0.5649652481079102,0.9024202823638916,0.5413533449172974,1.141462326049805,1010.129638671875,9.413934707641602,2.74634313583374,0.07515358924865723,-0.1267664730548858,-0.04367584362626076,-0.0649811327457428,122.0,60.65999984741211,-37.68000030517578,-29.39999961853027,-0.1527210026979446,0.5802170038223267,0.4782674312591553,0.7752640247344971,-0.1974560022354126,-0.02735813893377781,-1.286838531494141
34,34,3717,2021-03-12 13:11:26,1169.7860962566845,526,1072,467,1052,59,20,2021-03-12 13:11:27.170,-0.3844118118286133,1.280689239501953,0.4388867914676666,1.141462326049805,1010.129638671875,9.415340423583984,2.741569519042969,0.07227525860071182,0.05006742849946022,-0.03195793181657791,0.07989483326673508,122.0,60.71999740600586,-37.61999893188477,-29.39999961853027,-0.1529439985752105,0.5803679823875427,0.4802104234695434,0.7749969959259033,-0.1978850066661835,-0.02635662443935871,-1.28735077381134
35,35,3717,2021-03-12 13:11:26,1203.2085561497329,522,1081,465,1061,57,20,2021-03-12 13:11:27.203,-0.4052877426147461,0.8384928703308105,0.5972469449043274,1.120325088500977,1010.13232421875,9.42185115814209,2.719290971755981,0.06714402884244919,0.09054747968912123,-0.03621899336576462,0.007456851191818714,122.0,60.84000015258789,-37.5,-29.45999908447266,-0.1527529954910279,0.5813959836959839,0.4810345470905304,0.7743480205535889,-0.1975599974393845,-0.02468672581017017,-1.289734363555908
36,36,3717,2021-03-12 13:11:26,1236.6310160427804,522,1086,462,1067,60,19,2021-03-12 13:11:27.237,-0.4574041366577149,1.178766012191772,0.251558780670166,1.120325088500977,1010.13232421875,9.4260835647583,2.704629182815552,0.06327873468399048,0.0788295716047287,-0.02237055450677872,0.07776430249214172,122.0,60.84000015258789,-37.5,-29.45999908447266,-0.1523620039224625,0.5821409821510315,0.4809164702892304,0.7739980220794678,-0.1970340013504029,-0.02339218556880951,-1.291294455528259
37,37,3717,2021-03-12 13:11:26,1270.0534759358286,523,1092,464,1073,59,19,2021-03-12 13:11:27.270,-0.1852426528930664,0.6046156883239746,0.4564733505249024,1.120325088500977,1010.13232421875,9.431649208068848,2.685017347335815,0.06905395537614822,-0.02769687585532665,-0.004261057823896408,0.05219795927405357,122.0,60.84000015258789,-37.5,-29.45999908447266,-0.1527410000562668,0.5828999876976013,0.4784896075725555,0.7734540104866028,-0.1966329962015152,-0.02571258507668972,-1.293359160423279
38,38,3717,2021-03-12 13:11:26,1303.475935828877,525,1095,464,1075,61,20,2021-03-12 13:11:27.303,-0.2285976409912109,0.3711462020874024,0.6483535766601562,1.120325088500977,1010.13232421875,9.43190860748291,2.683855056762696,0.07828662544488907,-0.05326322466135025,-0.02663161233067513,-0.09161274135112762,115.0,60.89999771118164,-37.43999862670898,-29.51999855041504,-0.153437003493309,0.5827680230140686,0.4762720465660095,0.7733799815177917,-0.1967740058898926,-0.02916119992733002,-1.293455958366394
39,39,3717,2021-03-12 13:11:26,1336.898395721925,528,1097,466,1078,62,19,2021-03-12 13:11:27.337,-0.5763406753540039,1.490058660507202,0.6195224523544312,1.120325088500977,1010.13232421875,9.430098533630373,2.690217733383179,0.0783873125910759,0.06285060197114943,-0.04900216311216354,0.06178534030914306,115.0,60.95999908447266,-37.43999862670898,-29.51999855041504,-0.1534470021724701,0.5824869871139526,0.4765571355819702,0.7735530138015747,-0.1969189941883087,-0.02912966534495354,-1.292782306671143
40,40,3717,2021-03-12 13:11:26,1370.3208556149732,533,1104,470,1086,63,18,2021-03-12 13:11:27.370,-0.456538200378418,1.063361644744873,0.5757042169570923,1.120325088500977,1010.13232421875,9.439582824707033,2.657227754592896,0.05995631217956542,0.09374327212572098,-0.07456851005554199,0.1075917109847069,115.0,60.95999908447266,-37.38000106811523,-29.51999855041504,-0.1528750061988831,0.5840790271759033,0.4821979403495789,0.7724580168724059,-0.196946993470192,-0.02255965396761894,-1.296328544616699
41,41,3717,2021-03-12 13:11:26,1403.7433155080216,530,1116,465,1096,65,20,2021-03-12 13:11:27.404,-0.1978397369384766,0.5194261074066162,0.3511717021465301,1.120325088500977,1010.13232421875,9.444246292114258,2.640920162200928,0.04506868496537209,0.009587380103766918,-0.02769687585532665,-0.04261057823896408,115.0,60.95999908447266,-37.38000106811523,-29.51999855041504,-0.1521670073270797,0.584975004196167,0.4864796698093414,0.7719389796257019,-0.1968729943037033,-0.01706386730074883,-1.298088550567627
42,42,3717,2021-03-12 13:11:26,1437.1657754010696,530,1116,466,1097,64,19,2021-03-12 13:11:27.437,-0.4352664947509766,1.106093645095825,0.4327471554279328,1.120325088500977,1010.13232421875,9.442253112792967,2.648014545440674,0.04489610344171524,0.03408846259117126,-0.04793690145015717,0.06391586363315582,115.0,61.02000045776367,-37.38000106811523,-29.51999855041504,-0.1525419950485229,0.5845680236816406,0.4881472289562225,0.7720029950141907,-0.1975370049476624,-0.01695300452411175,-1.297334909439087
43,43,3717,2021-03-12 13:11:26,1470.5882352941173,532,1117,469,1098,63,19,2021-03-12 13:11:27.471,-0.3854646682739258,0.5701863765716553,0.5936307907104492,1.120325088500977,1010.13232421875,9.445123672485352,2.638043880462646,0.02287614159286023,-0.01171790901571512,-0.0926780104637146,-0.05752427875995636,115.0,60.95999908447266,-37.43999862670898,-29.45999908447266,-0.1520220041275024,0.5851380228996277,0.4969432651996613,0.7714440226554871,-0.1984319984912873,-0.0086714131757617,-1.298420667648315
44,44,3717,2021-03-12 13:11:26,1504.0106951871658,536,1117,472,1095,64,22,2021-03-12 13:11:27.504,-0.5409164428710938,1.226534128189087,0.0387348085641861,1.120325088500977,1010.13232421875,9.44255828857422,2.647284269332886,0.01752893440425396,0.04048004746437073,-0.02982740476727486,-0.02982740476727486,115.0,60.84000015258789,-37.43999862670898,-29.39999961853027,-0.1519230008125305,0.5847610235214233,0.499634176492691,0.7716190218925476,-0.1989410072565079,-0.006621381733566523,-1.297449946403503
45,45,3717,2021-03-12 13:11:26,1537.4331550802135,538,1116,472,1093,66,23,2021-03-12 13:11:27.537,-0.4760456085205078,1.559957265853882,0.2749886214733124,1.120325088500977,1010.13232421875,9.444725036621094,2.639472723007202,0.02069528959691525,0.07243798673152924,-0.02343581803143024,0.1778991669416428,115.0,60.59999847412109,-37.5,-29.39999961853027,-0.1522250026464463,0.5850229859352112,0.4987810850143433,0.7713680267333984,-0.1989089995622635,-0.007840530946850777,-1.298269629478455
46,46,3717,2021-03-12 13:11:26,1570.855614973262,541,1118,477,1096,64,22,2021-03-12 13:11:27.571,-0.24176025390625,0.2549521923065185,0.774073600769043,1.099185943603516,1010.134765625,9.469013214111328,2.55105209350586,-0.004337736871093512,0.2077265679836273,-0.08735168725252151,0.1629854589700699,108.0,60.3599967956543,-37.5,-29.34000015258789,-0.1508270055055619,0.5892230272293091,0.5034056901931763,0.7688829898834229,-0.1971909999847412,0.001700370223261416,-1.30762779712677
47,47,3717,2021-03-12 13:11:26,1604.2780748663101,546,1117,482,1096,64,21,2021-03-12 13:11:27.604,-0.3888721466064453,0.2022092342376709,0.3050454556941986,1.099185943603516,1010.134765625,9.467684745788574,2.555911064147949,-0.01893836259841919,-0.0415453128516674,-0.04900216311216354,-0.1086569726467133,108.0,60.11999893188477,-37.55999755859375,-29.34000015258789,-0.1501370072364807,0.5891889929771423,0.5086908340454102,0.7689440250396729,-0.1975809931755066,0.007409497164189814,-1.30710780620575
48,48,3717,2021-03-12 13:11:26,1637.7005347593579,550,1116,485,1095,65,21,2021-03-12 13:11:27.638,-0.4674005508422852,0.9448781013488771,0.06956950575113298,1.099185943603516,1010.134765625,9.46002197265625,2.584175109863281,-0.01330576464533806,-0.187486544251442,-0.01491370238363743,-0.1288969963788986,108.0,60.05999755859375,-37.61999893188477,-29.34000015258789,-0.1508509963750839,0.5877820253372192,0.5091859698295593,0.7696009874343872,-0.1986680030822754,0.005148895084857941,-1.304126381874084
49,49,3717,2021-03-12 13:11:26,1671.1229946524065,555,1113,485,1091,70,22,2021-03-12 13:11:27.671,-0.361480712890625,1.204854011535644,0.8520347476005554,1.099185943603516,1010.134765625,9.449870109558104,2.62108039855957,0.008680734783411026,0.04687163606286049,-0.02663161233067513,-0.02237055450677872,108.0,60.0,-37.73999786376953,-29.34000015258789,-0.1517080068588257,0.5859580039978027,0.5023278594017029,0.7707870006561279,-0.1988060027360916,-0.003311879700049758,-1.300225615501404
50,50,3717,2021-03-12 13:11:26,1704.5454545454545,561,1107,492,1086,69,21,2021-03-12 13:11:27.705,-0.3175783157348633,0.9433269500732422,0.5278254747390747,1.099185943603516,1010.134765625,9.449063301086426,2.624033689498901,0.002490209415555,0.06285060197114943,-0.03834952041506767,0.01597896590828896,108.0,60.0,-37.79999923706055,-29.34000015258789,-0.1512999981641769,0.5859349966049194,0.504150927066803,0.7708770036697388,-0.1988389939069748,-0.0009490002994425596,-1.299918293952942
51,51,3717,2021-03-12 13:11:26,1737.9679144385025,571,1103,501,1082,70,21,2021-03-12 13:11:27.738,-0.3693389892578125,1.091466426849365,0.3005610108375549,1.120325088500977,1010.132080078125,9.452939987182617,2.6099693775177,-8.870119927451015e-05,0.01065264455974102,-0.02024002373218536,0.05752427875995636,111.0,60.05999755859375,-37.86000061035156,-29.39999961853027,-0.1513449996709824,0.5865349769592285,0.5050881505012512,0.7704200148582458,-0.1988009959459305,3.398553235456347e-05,-1.3013995885849
52,52,3717,2021-03-12 13:11:26,1771.3903743315507,572,1099,506,1079,66,20,2021-03-12 13:11:27.771,-0.2297935485839844,0.4647176265716553,0.6455273032188416,1.120325088500977,1010.132080078125,9.457046508789062,2.595072031021118,0.004498480353504418,0.01171790901571512,-0.02450108155608177,-0.05006742849946022,111.0,60.18000030517578,-37.91999816894531,-29.39999961853027,-0.1518490016460419,0.5870519876480103,0.5039552450180054,0.7699369788169861,-0.1987639963626862,-0.001733468612655997,-1.302977323532104
53,53,3717,2021-03-12 13:11:26,1804.8128342245986,552,1117,486,1096,66,21,2021-03-12 13:11:27.805,-0.4278268814086914,0.7264790534973145,0.4526398777961731,1.120325088500977,1010.132080078125,9.453967094421387,2.606249809265137,0.005849748849868774,0.01491370238363743,-0.03621899336576462,-0.02343581803143024,111.0,60.3599967956543,-38.04000091552734,-29.34000015258789,-0.1518079936504364,0.5865769982337952,0.5035422444343567,0.7702860236167908,-0.198844000697136,-0.00224450440146029,-1.301793336868286
54,54,3717,2021-03-12 13:11:26,1838.2352941176468,542,1124,477,1104,65,20,2021-03-12 13:11:27.838,-0.4118337631225586,1.017442226409912,0.6480999588966371,1.120325088500977,1010.132080078125,9.45233917236328,2.612167596817017,0.001925853546708823,-0.0788295716047287,-0.07563377916812898,-0.009587380103766918,111.0,60.41999816894531,-38.04000091552734,-29.27999877929688,-0.1519729942083359,0.5862770080566406,0.50629723072052,0.7703099846839905,-0.1995099931955337,-0.0007372624822892249,-1.301169395446777
55,55,3717,2021-03-12 13:11:26,1871.6577540106948,547,1119,484,1099,63,20,2021-03-12 13:11:27.872,-0.2286100387573242,0.8530473709106445,0.3492386639118195,1.120325088500977,1010.132080078125,9.455862998962402,2.599391460418701,-0.000882335822097957,0.01917476020753384,-0.03089267015457153,0.05858954414725304,111.0,60.41999816894531,-38.04000091552734,-29.27999877929688,-0.1517769992351532,0.586883008480072,0.5065842270851135,0.7699670195579529,-0.1992020010948181,0.0003394393716007471,-1.302521824836731
56,56,3717,2021-03-12 13:11:26,1905.0802139037432,551,1119,489,1099,62,20,2021-03-12 13:11:27.905,-0.4784994125366211,1.117986679077148,0.3608806133270264,1.083332061767578,1010.13671875,9.461544036865234,2.578660726547241,-0.002947451779618859,0.06285060197114943,-0.02237055450677872,0.1661812514066696,108.0,60.41999816894531,-38.04000091552734,-29.27999877929688,-0.1512719988822937,0.5879129767417908,0.5051763057708739,0.7695249915122986,-0.1982569992542267,0.001143015921115875,-1.304715871810913
57,57,3717,2021-03-12 13:11:26,1938.5026737967914,549,1120,485,1100,64,20,2021-03-12 13:11:27.939,-0.6841440200805664,0.8532097339630127,1.008408546447754,1.083332061767578,1010.13671875,9.480441093444824,2.508249521255493,-0.01361775305122137,-0.05645901709794997,-0.1033306494355202,0.1640507280826569,108.0,60.41999816894531,-38.04000091552734,-29.21999931335449,-0.1517370045185089,0.5908390283584595,0.5098174810409546,0.7672020196914673,-0.1982049942016602,0.005429132375866175,-1.312145352363586
58,58,3717,2021-03-12 13:11:26,1971.9251336898394,551,1119,488,1099,63,20,2021-03-12 13:11:27.972,0.2848730087280273,-0.3231110572814941,-0.5145766735076904,1.083332061767578,1010.13671875,9.488258361816406,2.477892637252808,-0.05644041299819946,0.01171790901571512,0.001065264455974102,-0.08735168725252151,108.0,60.41999816894531,-38.04000091552734,-29.21999931335449,-0.1497340053319931,0.5926570296287537,0.5244233608245851,0.7661370038986206,-0.1984190046787262,0.02277364768087864,-1.315280795097351
59,59,3717,2021-03-12 13:11:26,2005.3475935828878,556,1116,491,1096,65,20,2021-03-12 13:11:28.005,-0.2909603118896484,0.9496991634368896,0.2544230818748474,1.083332061767578,1010.13671875,9.470329284667967,2.545835256576538,-0.04014204069972038,-0.213052898645401,-0.006391586735844612,-0.3515372574329376,108.0,60.41999816894531,-37.97999954223633,-29.15999984741211,-0.1505910009145737,0.5895090103149414,0.5207661390304565,0.7680680155754089,-0.1996760070323944,0.01576642319560051,-1.308144569396973
60,60,3717,2021-03-12 13:11:26,2038.770053475936,562,1112,494,1093,68,19,2021-03-12 13:11:28.039,-0.4489383697509766,1.876956701278686,0.5897049903869629,1.083332061767578,1010.13671875,9.446348190307617,2.633719205856323,-0.01629369333386421,-0.07456851005554199,-0.02450108155608177,0.004261057823896408,108.0,60.41999816894531,-37.97999954223633,-29.09999847412109,-0.1519079953432083,0.5853559970855713,0.5159707069396973,0.7705360054969788,-0.2013839930295944,0.006186493206769228,-1.298885464668274
61,61,3717,2021-03-12 13:11:26,2072.1925133689842,563,1107,494,1086,69,21,2021-03-12 13:11:28.072,-0.3551959991455078,1.247392892837524,0.6917043328285217,1.083332061767578,1010.13671875,9.448373794555664,2.626425504684448,-0.01294818334281444,0.04580637067556381,-0.05006742849946022,0.03195793181657791,108.0,60.41999816894531,-37.97999954223633,-29.09999847412109,-0.1519140005111695,0.5856720209121704,0.5140648484230042,0.7704049944877625,-0.2009579986333847,0.004929923918098211,-1.299655556678772
62,62,3717,2021-03-12 13:11:26,2105.614973262032,574,1102,503,1082,71,20,2021-03-12 13:11:28.106,-0.3198366165161133,1.176690578460693,0.3605217039585114,32427.630859375,1.0,9.451321601867676,2.615724802017212,-0.02653057314455509,0.1086569726467133,-0.04048004746437073,0.08415589481592177,111.0,60.41999816894531,-37.97999954223633,-29.09999847412109,-0.1506530046463013,0.5864629745483398,0.5162227749824524,0.7702559828758241,-0.2001730054616928,0.01014237571507692,-1.300780177116394
63,63,3717,2021-03-12 13:11:26,2139.03743315508,585,1090,517,1069,68,21,2021-03-12 13:11:28.139,-0.348139762878418,0.5796411037445068,0.3035796284675598,32427.630859375,1.0,9.455682754516602,2.59985876083374,-0.03183773905038834,-0.03941478580236435,-0.004261057823896408,-0.003195793367922306,111.0,60.41999816894531,-37.97999954223633,-29.15999984741211,-0.1500760018825531,0.5873000025749207,0.5164281129837036,0.7699049711227417,-0.1995020061731339,0.01224533747881651,-1.302452325820923
64,64,3717,2021-03-12 13:11:26,2172.4598930481284,595,1076,527,1054,68,22,2021-03-12 13:11:28.172,-0.3638019561767578,0.6818215847015381,0.4433059394359589,32427.630859375,1.0,9.452191352844238,2.612599849700928,-0.02312353998422623,-0.118244357407093,-0.04367584362626076,-0.08415589481592177,111.0,60.41999816894531,-37.97999954223633,-29.15999984741211,-0.1508000046014786,0.5865610241889954,0.5149096846580505,0.77019202709198,-0.2000200003385544,0.008850546553730966,-1.301112771034241
65,65,3717,2021-03-12 13:11:26,2205.882352941176,605,1069,541,1046,64,23,2021-03-12 13:11:28.206,-0.4152231216430664,1.285398244857788,0.5809102654457092,32427.630859375,1.0,9.450940132141113,2.61715054512024,-0.02186418697237968,-0.04367584362626076,-0.04474110901355743,0.08522115647792816,111.0,60.41999816894531,-37.97999954223633,-29.21999931335449,-0.1509020030498505,0.5863369703292847,0.5147743225097656,0.7703089714050293,-0.2001509964466095,0.008354000747203827,-1.300634264945984
66,66,3717,2021-03-12 13:11:26,2239.3048128342243,615,1061,547,1038,68,23,2021-03-12 13:11:28.239,-0.2729120254516602,1.189682006835938,0.6251029372215271,32427.630859375,1.0,9.466646194458008,2.559637784957886,-0.03253799676895142,0.2162486910820008,-0.03941478580236435,0.2364887148141861,111.0,60.3599967956543,-37.97999954223633,-29.27999877929688,-0.1497469991445541,0.5891270041465759,0.5144288539886475,0.7688940167427063,-0.1982569992542267,0.01271126884967089,-1.30670166015625
67,67,3717,2021-03-12 13:11:26,2272.7272727272725,625,1054,559,1030,66,24,2021-03-12 13:11:28.273,-0.3722915649414063,-0.1962640285491944,0.2907755374908447,1.189023971557617,1010.1240234375,9.475046157836914,2.528216600418091,-0.04297565668821335,-0.04687163606286049,-0.02130528911948204,-0.1629854589700699,111.0,60.3599967956543,-38.04000091552734,-29.27999877929688,-0.1487819999456405,0.5907289981842041,0.5155852437019348,0.7681310176849365,-0.1971720010042191,0.01699677109718323,-1.310003280639648
68,68,3717,2021-03-12 13:11:26,2306.149732620321,636,1054,568,1029,68,25,2021-03-12 13:11:28.306,-0.597416877746582,1.401153564453125,0.3259003460407257,1.189023971557617,1010.1240234375,9.45117473602295,2.616316795349121,-0.02063961513340473,-0.1161138266324997,0.002130528911948204,-0.1747033745050431,111.0,60.3599967956543,-38.15999984741211,-29.34000015258789,-0.1495950073003769,0.5867080092430115,0.5096756219863892,0.7707560062408447,-0.1983159929513932,0.007888642139732838,-1.300724029541016
69,69,3717,2021-03-12 13:11:26,2339.572192513369,646,1045,579,1022,67,23,2021-03-12 13:11:28.340,-0.3171930313110352,0.7935986518859863,0.5803725123405457,1.189023971557617,1010.1240234375,9.448678016662598,2.625321388244629,-0.01653802394866943,0.009587380103766918,-0.01917476020753384,-0.02130528911948204,111.0,60.3599967956543,-38.21999740600586,-29.34000015258789,-0.1495739966630935,0.586322009563446,0.5078407526016235,0.7710959911346436,-0.1981489956378937,0.006299345288425684,-1.299771308898926
70,70,3717,2021-03-12 13:11:26,2372.994652406417,656,1035,588,1011,68,24,2021-03-12 13:11:28.373,-0.2899608612060547,0.9753637313842772,0.6275136470794678,1.189023971557617,1010.1240234375,9.44059944152832,2.654246091842652,-0.01100669335573911,0.01278317347168922,-0.03089267015457153,-0.1193096190690995,115.0,60.29999923706055,-38.21999740600586,-29.34000015258789,-0.1495269984006881,0.5850750207901001,0.5058956146240234,0.772022008895874,-0.1982640027999878,0.004146800842136146,-1.296711325645447
71,71,3717,2021-03-12 13:11:26,2406.417112299465,671,1025,602,1002,69,23,2021-03-12 13:11:28.406,-0.5684700012207031,1.356034517288208,0.1928659230470657,1.189023971557617,1010.1240234375,9.431804656982422,2.685377836227417,-0.007315291557461023,0.03941478580236435,0.004261057823896408,-0.0415453128516674,115.0,60.29999923706055,-38.27999877929688,-29.27999877929688,-0.1493159979581833,0.5837709903717041,0.504425585269928,0.7730249762535095,-0.1983619928359985,0.002724113408476114,-1.293416976928711
72,72,3717,2021-03-12 13:11:26,2439.839572192513,688,1013,620,990,68,23,2021-03-12 13:11:28.440,-0.3557357788085937,0.8629386425018309,0.5207139849662781,1.189023971557617,1010.1240234375,9.434548377990724,2.675691366195679,-0.004763561300933361,-0.03195793181657791,-0.03195793181657791,-0.007456851191818714,115.0,60.29999923706055,-38.34000015258789,-29.27999877929688,-0.1496710032224655,0.584102988243103,0.5040384531021118,0.7726920247077942,-0.1984110027551651,0.001780308550223708,-1.294440746307373
73,73,3717,2021-03-12 13:11:26,2473.262032085561,701,1000,630,977,71,23,2021-03-12 13:11:28.473,-0.1847591400146484,0.496671199798584,0.5486500859260559,1.189023971557617,1010.1240234375,9.43116569519043,2.687617063522339,0.0008192074601538478,-0.02982740476727486,-0.01810949668288231,-0.1257012039422989,115.0,60.29999923706055,-38.34000015258789,-29.21999931335449,-0.1497810035943985,0.5835540294647217,0.5020868182182312,0.7730990052223206,-0.1983599960803986,-0.0003048080834560096,-1.293179154396057
74,74,3717,2021-03-12 13:11:26,2506.684491978609,722,984,648,963,74,21,2021-03-12 13:11:28.507,-0.4182491302490233,0.7014620304107666,0.3179584443569183,1.189023971557617,1010.1240234375,9.415658950805664,2.741400003433228,0.01603270508348942,-0.111852765083313,-0.01384843792766333,-0.1480717658996582,115.0,60.29999923706055,-38.34000015258789,-29.21999931335449,-0.1499429941177368,0.5811579823493958,0.4972044229507446,0.7748330235481262,-0.1985059976577759,-0.005848296917974949,-1.287466764450073
75,75,3717,2021-03-12 13:11:26,2540.106951871657,733,976,664,954,69,22,2021-03-12 13:11:28.540,-0.455078125,1.259491443634033,0.2839643955230713,1.189023971557617,1010.1240234375,9.40939235687256,2.762767314910889,0.02608472853899002,-0.06178534030914306,-0.04367584362626076,-0.04900216311216354,115.0,60.29999923706055,-38.34000015258789,-29.15999984741211,-0.1505489945411682,0.580062985420227,0.4952586889266968,0.7754200100898743,-0.1989589929580688,-0.00944124162197113,-1.285189986228943
76,76,3717,2021-03-12 13:11:26,2573.5294117647063,727,985,655,962,72,23,2021-03-12 13:11:28.574,-0.3319807052612305,0.998981475830078,0.5889845490455627,1.189023971557617,1010.1240234375,9.406004905700684,2.774280309677124,0.02752235904335976,0.05858954414725304,-0.03621899336576462,0.003195793367922306,115.0,60.3599967956543,-38.27999877929688,-29.15999984741211,-0.150178000330925,0.5796530246734619,0.4937474727630615,0.7758910059928894,-0.1985989958047867,-0.009920215234160423,-1.283966422080994
77,77,3717,2021-03-12 13:11:26,2606.951871657754,723,990,655,968,68,22,2021-03-12 13:11:28.607,-0.3661260604858398,0.9819617271423341,0.4808651208877564,1.189023971557617,1010.1240234375,9.406631469726562,2.772146463394165,0.02550853602588177,0.05432848632335663,-0.01278317347168922,0.06178534030914306,115.0,60.41999816894531,-38.15999984741211,-29.15999984741211,-0.1498180031776428,0.5798400044441223,0.4933894276618958,0.7759130001068115,-0.1982360035181045,-0.009201467037200928,-1.284192323684692
78,78,3717,2021-03-12 13:11:26,2640.374331550802,722,989,654,966,68,23,2021-03-12 13:11:28.640,-0.3958597183227539,0.623415470123291,0.5516493916511536,1.165243148803711,1010.126708984375,9.412423133850098,2.752408981323242,0.0265503004193306,0.02130528911948204,-0.05326322466135025,0.01704423129558563,115.0,60.53999710083008,-38.09999847412109,-29.15999984741211,-0.1501089930534363,0.5806319713592529,0.493102103471756,0.775297999382019,-0.1981039941310883,-0.00964590534567833,-1.286288857460022
79,79,3717,2021-03-12 13:11:26,2673.79679144385,720,991,650,969,70,22,2021-03-12 13:11:28.674,-0.3843526840209961,0.9711439609527588,0.5138951539993286,1.165243148803711,1010.126708984375,9.410492897033693,2.759022235870361,0.02120893821120262,0.008522115647792816,-0.04474110901355743,-0.04900216311216354,115.0,60.53999710083008,-38.04000091552734,-29.15999984741211,-0.1497199982404709,0.5804420113563538,0.494608998298645,0.7754979729652405,-0.198170006275177,-0.007686969824135302,-1.285588502883911
80,80,3717,2021-03-12 13:11:26,2707.2192513368977,716,989,647,967,69,22,2021-03-12 13:11:28.707,-0.4808368682861328,1.227336168289185,0.4178749918937683,1.165243148803711,1010.126708984375,9.411209106445312,2.756615400314331,0.01667261123657227,0.1022653877735138,-0.02769687585532665,0.07243798673152924,115.0,60.53999710083008,-38.04000091552734,-29.21999931335449,-0.1489100009202957,0.5807560086250305,0.4939215481281281,0.775613009929657,-0.1974090039730072,-0.006048143841326237,-1.285848140716553
81,81,3717,2021-03-12 13:11:26,2740.6417112299464,713,987,643,963,70,24,2021-03-12 13:11:28.741,-0.3652725219726562,0.9158985614776612,0.5844162702560425,1.165243148803711,1010.126708984375,9.41535472869873,2.742441654205322,0.01293707732111216,0.1054611802101135,-0.04474110901355743,0.04048004746437073,106.0,60.53999710083008,-37.97999954223633,-29.21999931335449,-0.1483930051326751,0.5815100073814392,0.4934152066707611,0.7753229737281799,-0.1967169940471649,-0.004717322066426277,-1.287355899810791
82,82,3717,2021-03-12 13:11:26,2774.0641711229946,703,998,637,976,66,22,2021-03-12 13:11:28.774,-0.4626741409301758,1.402461528778076,0.2070936262607574,1.165243148803711,1010.126708984375,9.42177677154541,2.720353603363037,-0.002389379311352968,0.1374191194772721,-0.02130528911948204,0.09693906456232072,106.0,60.53999710083008,-37.97999954223633,-29.21999931335449,-0.1468320041894913,0.5828729867935181,0.4947181344032288,0.7749249935150146,-0.1954209953546524,0.0008783339289948344,-1.289706945419312
83,83,3717,2021-03-12 13:11:26,2807.4866310160432,683,1013,616,992,67,21,2021-03-12 13:11:28.807,-0.4267921447753906,1.109179019927978,0.4369520246982575,1.165243148803711,1010.126708984375,9.433778762817383,2.678447961807251,-0.002404430881142616,0.1736381053924561,0.02237055450677872,0.1821602284908295,106.0,60.47999954223633,-37.97999954223633,-29.21999931335449,-0.1460489928722382,0.5848990082740784,0.4905782341957092,0.7740319967269897,-0.1934850066900253,0.0008976953104138373,-1.294152975082398
84,84,3717,2021-03-12 13:11:26,2840.9090909090905,658,1034,589,1013,69,21,2021-03-12 13:11:28.841,-0.3283061981201172,0.8872003555297852,0.6945192813873291,1.165243148803711,1010.126708984375,9.445425987243652,2.637064456939697,-0.001397884101606905,0.3099919557571411,-0.03621899336576462,0.1480717658996582,106.0,60.41999816894531,-37.97999954223633,-29.27999877929688,-0.1453599929809571,0.5868710279464722,0.4862956404685974,0.7731329798698425,-0.1916159987449646,0.0005300909397192299,-1.298535227775574
85,85,3717,2021-03-12 13:11:26,2874.331550802139,640,1052,577,1032,63,20,2021-03-12 13:11:28.874,-0.3778953552246094,-1.08625340461731,-0.3734102845191956,1.165243148803711,1010.126708984375,9.46628475189209,2.561081647872925,-0.02522431127727032,-0.09693906456232072,-0.05645901709794997,0.05965480953454971,106.0,60.3599967956543,-37.97999954223633,-29.27999877929688,-0.1443510055541992,0.5904099941253662,0.4924442768096924,0.7708640098571777,-0.190649002790451,0.009848766960203648,-1.306560635566711
86,86,3717,2021-03-12 13:11:26,2907.754010695187,625,1064,561,1044,64,20,2021-03-12 13:11:28.908,-0.3379955291748047,-1.076085209846497,-0.03235898539423943,1.165243148803711,1010.126708984375,9.435961723327637,2.670623540878296,0.02637348137795925,-0.6061354875564575,0.0511326938867569,-0.5944175720214844,106.0,60.29999923706055,-38.04000091552734,-29.27999877929688,-0.1503569930791855,0.5841479897499084,0.4907944202423096,0.7729740142822266,-0.1966580003499985,-0.009875081479549408,-1.294969320297241
87,87,3717,2021-03-12 13:11:26,2941.1764705882347,610,1075,545,1055,65,20,2021-03-12 13:11:28.941,-0.3549270629882812,2.846156358718872,0.8895023465156555,1.165243148803711,1010.126708984375,9.395432472229004,2.808948278427124,0.07655804604291916,0.111852765083313,-0.0415453128516674,0.111852765083313,106.0,60.29999923706055,-38.04000091552734,-29.21999931335449,-0.1546989977359771,0.5769330263137817,0.487364649772644,0.7763090133666992,-0.2013940066099167,-0.0272483117878437,-1.280180096626282
88,88,3717,2021-03-12 13:11:26,2974.598930481284,599,1087,533,1069,66,18,2021-03-12 13:11:28.975,-0.3816003799438477,1.034310817718506,0.5114648342132568,1.165243148803711,1010.126708984375,9.407740592956543,2.76768159866333,0.06673486530780792,0.1629854589700699,-0.01491370238363743,0.1470064967870713,106.0,60.29999923706055,-38.04000091552734,-29.15999984741211,-0.1531780064105988,0.5791580080986023,0.484900563955307,0.7755100131034851,-0.1992350071668625,-0.02410751767456532,-1.284592628479004
89,89,3717,2021-03-12 13:11:26,3008.0213903743315,579,1109,510,1090,69,19,2021-03-12 13:11:29.008,-0.3310270309448242,0.4445762634277344,0.5835708379745483,1.392478942871094,1010.099609375,9.414628028869627,2.744500398635864,0.05208966881036758,0.04474110901355743,-0.07350324839353561,-0.02556634694337845,106.0,60.3599967956543,-38.09999847412109,-29.03999900817871,-0.151870995759964,0.5805209875106812,0.4864517450332642,0.7750189900398254,-0.1981790065765381,-0.01897737570106983,-1.28709089756012
90,90,3717,2021-03-12 13:11:26,3041.4438502673797,562,1126,500,1107,62,19,2021-03-12 13:11:29.041,-0.393651008605957,1.004007577896118,0.2717063724994659,1.392478942871094,1010.099609375,9.4102144241333,2.759677410125732,0.04791954532265663,-0.03621899336576462,-0.06285060197114943,-0.06072007492184639,106.0,60.3599967956543,-38.09999847412109,-29.03999900817871,-0.1514890044927597,0.5799540281295776,0.4878120422363281,0.7754750251770021,-0.1983480006456375,-0.01736243814229965,-1.285487651824951
91,91,3717,2021-03-12 13:11:26,3074.866310160427,545,1143,470,1121,75,22,2021-03-12 13:11:29.075,-0.3416070938110352,1.326935291290283,0.5993112325668335,1.392478942871094,1010.099609375,9.410842895507812,2.757572650909424,0.04592617973685265,0.06711166352033615,-0.06604639440774918,0.04367584362626076,108.0,60.41999816894531,-38.09999847412109,-28.97999954223633,-0.1511960029602051,0.5801230072975159,0.487676739692688,0.7754759788513184,-0.198073998093605,-0.01665302738547325,-1.285715341567993
92,92,3717,2021-03-12 13:11:26,3108.288770053476,522,1171,452,1153,70,18,2021-03-12 13:11:29.108,-0.3200244903564453,0.8361740112304688,0.3885433971881866,1.392478942871094,1010.099609375,9.422779083251953,2.716821193695068,0.01727379113435745,0.1917476058006287,-0.05752427875995636,0.1065264493227005,108.0,60.47999954223633,-38.09999847412109,-28.85999870300293,-0.1488599926233292,0.5825129747390747,0.4919340908527374,0.7745550274848938,-0.1964240074157715,-0.006358003243803978,-1.290075898170471
93,93,3717,2021-03-12 13:11:26,3141.711229946524,512,1190,450,1170,62,20,2021-03-12 13:11:29.142,-0.4568614959716797,0.771472692489624,0.3124499022960663,1.392478942871094,1010.099609375,9.43032932281494,2.690542936325073,0.002387625863775611,0.1544633507728577,-0.04580637067556381,0.1075917109847069,108.0,60.47999954223633,-38.09999847412109,-28.79999923706055,-0.1474249958992004,0.5840259790420532,0.4933476448059082,0.7740060091018677,-0.1951729953289032,-0.0008874139166437088,-1.292868375778198
94,94,3717,2021-03-12 13:11:26,3175.133689839572,521,1192,459,1172,62,20,2021-03-12 13:11:29.175,-0.2371301651000977,0.7662727832794191,0.9912214279174804,1.392478942871094,1010.099609375,9.43565273284912,2.671800851821899,-0.006007423624396324,0.03089267015457153,-0.07669904083013535,0.02769687585532665,108.0,60.47999954223633,-38.09999847412109,-28.79999923706055,-0.1472879946231842,0.5848780274391174,0.4963645935058594,0.7733619809150696,-0.1952770054340363,0.002248451113700867,-1.294853568077087
95,95,3717,2021-03-12 13:11:26,3208.5561497326203,525,1196,461,1176,64,20,2021-03-12 13:11:29.209,-0.4016685485839844,1.330883026123047,0.4179667532444,1.392478942871094,1010.099609375,9.442173957824707,2.648280143737793,-0.04566840454936028,0.2279665917158127,-0.1065264493227005,0.09374327212572098,108.0,60.47999954223633,-38.09999847412109,-28.73999977111816,-0.1446589976549149,0.5865569710731506,0.5063387751579285,0.7727689743041992,-0.1945530027151108,0.01724284142255783,-1.29730498790741
96,96,3717,2021-03-12 13:11:26,3241.9786096256685,532,1190,467,1170,65,20,2021-03-12 13:11:29.242,-0.4866352081298828,1.548248767852783,0.5363863706588745,1.392478942871094,1010.099609375,9.46489143371582,2.564989566802979,-0.08268515020608902,0.2098570913076401,-0.05645901709794997,0.3142530024051666,108.0,60.47999954223633,-38.09999847412109,-28.73999977111816,-0.1420010030269623,0.590811014175415,0.5138712525367737,0.7705720067024231,-0.1923419982194901,0.03222489729523659,-1.306017279624939
97,97,3717,2021-03-12 13:11:26,3275.4010695187158,542,1177,476,1156,66,21,2021-03-12 13:11:29.275,-0.6649150848388672,0.8965854644775391,0.7694703340530396,1.392478942871094,1010.099609375,9.48994255065918,2.469662189483643,-0.1098677590489388,0.186421275138855,-0.06285060197114943,0.2588592767715454,108.0,60.41999816894531,-38.21999740600586,-28.68000030517578,-0.1401450037956238,0.5953500270843506,0.5198956131935121,0.7679499983787537,-0.1901839971542358,0.04445764422416687,-1.315961003303528
98,98,3717,2021-03-12 13:11:26,3308.8235294117644,544,1177,476,1156,68,21,2021-03-12 13:11:29.309,-0.2091350555419922,0.9360358715057372,0.4394127130508423,1.392478942871094,1010.099609375,9.498637199401855,2.43500018119812,-0.1293636113405227,0.118244357407093,-0.07350324839353561,-0.01491370238363743,108.0,60.3599967956543,-38.27999877929688,-28.61999893188477,-0.1388069987297058,0.5971450209617615,0.5251988172531128,0.7670069932937622,-0.1893370002508163,0.05307683721184731,-1.319501996040344
99,99,3717,2021-03-12 13:11:26,3342.245989304813,538,1182,474,1161,64,21,2021-03-12 13:11:29.342,-0.815302848815918,1.5234694480896,0.986145555973053,1.392478942871094,1010.099609375,9.501466751098633,2.42217493057251,-0.1589488983154297,0.1992044597864151,-0.1033306494355202,0.2215750068426132,108.0,60.3599967956543,-38.52000045776367,-28.5,-0.1374099999666214,0.5980150103569031,0.5360628366470337,0.7664970159530641,-0.1896750032901764,0.06552843004465103,-1.320665121078491
100,100,3717,2021-03-12 13:11:26,3375.668449197861,535,1185,469,1165,66,20,2021-03-12 13:11:29.376,0.1120090484619141,0.3248229026794434,0.00545080006122589,1.405691146850586,1010.09814453125,9.517470359802246,2.356683015823364,-0.1838188320398331,0.1555286049842834,0.03302319720387459,0.09693906456232072,89.0,60.3599967956543,-38.52000045776367,-28.5,-0.1352960020303726,0.6012799739837646,0.5421571731567383,0.7648079991340637,-0.1876789927482605,0.0778413638472557,-1.327345252037048
101,101,3717,2021-03-12 13:11:26,3409.090909090909,531,1191,468,1171,63,20,2021-03-12 13:11:29.409,-0.0656442642211914,1.102506160736084,0.06346534192562102,1.405691146850586,1010.09814453125,9.517952919006348,2.354721069335937,-0.1843725293874741,0.2439455538988113,0.0926780104637146,0.08202536404132843,89.0,60.3599967956543,-38.81999969482422,-28.43999862670898,-0.1342210024595261,0.6016039848327637,0.5388857126235962,0.7650759816169739,-0.1863179951906204,0.07813967019319534,-1.327549576759338
102,102,3717,2021-03-12 13:11:26,3442.5133689839568,523,1203,459,1183,64,20,2021-03-12 13:11:29.443,-0.5235910415649414,1.339704990386963,0.903284192085266,1.405691146850586,1010.09814453125,9.525789260864258,2.323423624038696,-0.1766439825296402,0.1533980816602707,-0.08309062570333481,0.2897519469261169,89.0,60.29999923706055,-39.0,-28.3799991607666,-0.133869007229805,0.6030070185661316,0.5335673093795776,0.7644389867782593,-0.1846430003643036,0.0758814737200737,-1.330889582633972
103,103,3717,2021-03-12 13:11:26,3475.935828877005,523,1216,459,1197,64,19,2021-03-12 13:11:29.476,-0.4133214950561523,0.8335916996002197,0.5740921497344971,1.405691146850586,1010.09814453125,9.544806480407717,2.24056339263916,-0.2161589711904525,0.1800296902656555,-0.1533980816602707,0.2205097377300262,89.0,60.29999923706055,-39.18000030517578,-28.3799991607666,-0.1324059963226319,0.6068210005760193,0.5510973930358887,0.7617369890213013,-0.1843699961900711,0.09617763012647627,-1.339191913604736
104,104,3717,2021-03-12 13:11:26,3509.358288770053,535,1208,470,1189,65,19,2021-03-12 13:11:29.509,-0.3381891250610352,0.9416165351867676,0.5978783369064331,1.405691146850586,1010.09814453125,9.560653686523438,2.166057348251343,-0.2686756253242493,0.3664509654045105,-0.1065264493227005,0.2940129935741425,89.0,60.23999786376953,-39.47999954223633,-28.19999885559082,-0.1304470002651215,0.6103649735450745,0.5757455229759216,0.7591609954833984,-0.1846909970045089,0.1234086900949478,-1.346340298652649
105,105,3717,2021-03-12 13:11:26,3542.7807486631013,543,1205,480,1185,63,20,2021-03-12 13:11:29.543,-0.3207073211669922,0.8508782386779785,0.2405722737312317,1.458536148071289,1010.091552734375,9.576690673828123,2.0892014503479,-0.3040186166763306,0.2897519469261169,-0.09480853378772736,0.2663161158561707,75.0,60.23999786376953,-39.54000091552734,-28.13999938964844,-0.1276479959487915,0.6141549944877625,0.5895085334777832,0.7570850253105164,-0.1825940012931824,0.1445047408342361,-1.353809714317322
106,106,3717,2021-03-12 13:11:26,3576.203208556149,540,1208,475,1188,65,20,2021-03-12 13:11:29.576,-0.5154962539672852,0.994297981262207,0.4251128435134888,1.458536148071289,1010.091552734375,9.594308853149414,1.998454093933105,-0.3544839024543762,0.187486544251442,-0.1523328125476837,0.2833603322505951,75.0,60.05999755859375,-39.84000015258789,-27.77999877929688,-0.1247150003910065,0.6185089945793152,0.6142252087593079,0.7543299794197083,-0.1813230067491531,0.1755530834197998,-1.362318873405456
107,107,3717,2021-03-12 13:11:26,3609.6256684491973,528,1211,464,1191,64,20,2021-03-12 13:11:29.610,-0.1221799850463867,1.028765320777893,0.5451328754425049,1.458536148071289,1010.091552734375,9.617584228515623,1.868218779563904,-0.4266198873519897,0.3962783813476562,-0.2269013226032257,0.4431500136852264,75.0,60.0,-39.89999771118164,-27.65999984741211,-0.1219149976968765,0.6244069933891296,0.6587423086166382,0.7499309778213501,-0.1812590062618256,0.2245068848133087,-1.374115705490112
108,108,3717,2021-03-12 13:11:26,3643.048128342246,526,1210,461,1191,65,19,2021-03-12 13:11:29.643,-0.3379182815551758,0.9679290056228638,0.1458560526371002,1.458536148071289,1010.091552734375,9.641785621643066,1.708788514137268,-0.5349138379096985,0.3014698326587677,-0.2194444835186005,0.3004045784473419,75.0,59.57999801635742,-40.31999969482422,-27.29999923706055,-0.1177560016512871,0.6316720247268677,0.7322673797607422,0.7443270087242126,-0.1819330006837845,0.3033739030361176,-1.387172818183899
109,109,3717,2021-03-12 13:11:26,3676.4705882352937,539,1203,475,1183,64,20,2021-03-12 13:11:29.676,-0.1655712127685547,-0.8789185285568237,0.07193461060523987,1.458536148071289,1010.091552734375,9.637033462524414,1.736042737960815,-0.5328184366226196,-0.2439455538988113,-0.02024002373218536,-0.3089267015457153,75.0,59.39999771118164,-40.43999862670898,-27.18000030517578,-0.1185519993305206,0.6304219961166382,0.7297095060348511,0.744953989982605,-0.1831820011138916,0.2977891564369202,-1.384537577629089
110,110,3717,2021-03-12 13:11:26,3709.8930481283423,543,1199,478,1179,65,20,2021-03-12 13:11:29.710,-0.2541751861572266,2.039993762969971,0.3984412550926209,1.458536148071289,1010.091552734375,9.625081062316896,1.805094242095948,-0.5193484425544739,-0.04474110901355743,-0.001065264455974102,-0.03834952041506767,65.0,59.15999984741211,-40.79999923706055,-27.0,-0.1200380027294159,0.6273409724235535,0.717173159122467,0.7468379735946655,-0.1851119995117188,0.2801462113857269,-1.378066778182983
111,111,3717,2021-03-12 13:11:26,3743.3155080213896,543,1201,481,1181,62,20,2021-03-12 13:11:29.743,-0.1521177291870117,1.43505847454071,0.497259795665741,1.458536148071289,1010.091552734375,9.623579978942873,1.816267371177673,-0.5080336928367615,-0.01917476020753384,-0.02130528911948204,0.03302319720387459,65.0,58.61999893188477,-41.34000015258789,-26.81999969482422,-0.1203550025820732,0.6268259882926941,0.7098063230514526,0.747294008731842,-0.1848089993000031,0.2727425992488861,-1.377269268035889
112,112,3717,2021-03-12 13:11:26,3776.7379679144383,550,1201,485,1181,65,20,2021-03-12 13:11:29.777,-0.2228364944458008,1.079694867134094,0.2866160571575165,1.458536148071289,1010.091552734375,9.622472763061523,1.822077631950378,-0.5080797076225281,-0.06285060197114943,-0.06285060197114943,-0.01384843792766333,65.0,58.5,-41.45999908447266,-26.81999969482422,-0.1203529983758927,0.6265900135040283,0.7091622352600098,0.7474660277366638,-0.1849129945039749,0.2719386219978333,-1.376683473587036
113,113,3717,2021-03-12 13:11:26,3810.1604278074874,556,1192,491,1172,65,20,2021-03-12 13:11:29.810,-0.3523082733154297,1.23490297794342,0.1459416747093201,1.458536148071289,1010.091552734375,9.627445220947266,1.796156287193298,-0.5062690377235413,-0.05858954414725304,-0.02982740476727486,0.08948221802711487,65.0,58.02000045776367,-42.0,-26.81999969482422,-0.1203830018639565,0.6276379823684692,0.7111271023750305,0.7467210292816162,-0.184349998831749,0.2747349143028259,-1.379329562187195
114,114,3717,2021-03-12 13:11:26,3843.582887700535,562,1187,498,1167,64,20,2021-03-12 13:11:29.844,-0.1380805969238281,0.592726469039917,0.3359503149986267,1.458536148071289,1010.091552734375,9.62869644165039,1.787110090255737,-0.5143183469772339,-0.02343581803143024,-0.08628641813993454,0.01597896590828896,65.0,57.89999771118164,-42.23999786376953,-26.81999969482422,-0.1199299991130829,0.6280919909477234,0.7158305048942566,0.746429979801178,-0.1842759996652603,0.2802207171916962,-1.380001306533814
115,115,3717,2021-03-12 13:11:26,3877.005347593583,562,1185,498,1165,64,20,2021-03-12 13:11:29.877,-0.1862154006958008,0.2887974977493286,-0.06352114677429199,1.458536148071289,1010.091552734375,9.62415885925293,1.813311696052551,-0.5074959397315979,-0.2428802996873856,0.02769687585532665,-0.1938781291246414,65.0,57.77999877929688,-42.41999816894531,-26.81999969482422,-0.1204600036144256,0.6269260048866272,0.7101439833641052,0.7471849918365479,-0.1848399937152863,0.2728903889656067,-1.377576589584351
116,116,3717,2021-03-12 13:11:26,3910.427807486631,559,1178,491,1158,68,20,2021-03-12 13:11:29.910,-0.1428356170654297,0.6824676990509033,-0.1770293414592743,1.461177825927734,1010.09130859375,9.614297866821287,1.874539613723755,-0.4706022441387177,-0.4420847594738007,0.111852765083313,-0.2833603322505951,67.0,57.71999740600586,-42.41999816894531,-26.81999969482422,-0.1232429966330529,0.6238880157470703,0.6896488666534424,0.748885989189148,-0.1863940060138702,0.2459661811590195,-1.372407913208008
117,117,3717,2021-03-12 13:11:26,3943.850267379679,561,1176,495,1157,66,19,2021-03-12 13:11:29.944,-0.1236457824707031,0.7374687194824219,0.2728472352027893,1.461177825927734,1010.09130859375,9.580742835998537,2.058958768844604,-0.3746007978916168,-0.500674307346344,0.07989483326673508,-0.5219795703887941,67.0,57.65999984741211,-42.41999816894531,-26.8799991607666,-0.1298130005598068,0.6149560213088989,0.6392735838890076,0.7541739940643309,-0.1902589946985245,0.1799685359001159,-1.355737328529358
